[
  {
    "name": "Washington",
    "country": "United States of America",
    "region": "Virginia",
    "lat": "38.713",
    "lon": "-78.160",
    "timezone_id": "America/New_York",
    "localtime": "2025-10-28 12:50",
    "utc_offset": "-4.0",
    "ip": "23.96.52.53",
    "zipCode": "20001"
  },
  {
    "name": "Mountain View",
    "country": "United States of America",
    "region": "California",
    "lat": "37.386",
    "lon": "-122.083",
    "timezone_id": "America/Los_Angeles",
    "localtime": "2024-10-27 10:30",
    "utc_offset": "-7.0",
    "ip": "8.8.8.8",
    "zipCode": "94043"
  },
  {
    "name": "London",
    "country": "United Kingdom",
    "region": "Greater London",
    "lat": "51.5074",
    "lon": "-0.1278",
    "timezone_id": "Europe/London",
    "localtime": "2024-10-27 15:30",
    "utc_offset": "1.0",
    "ip": "81.2.69.142",
    "zipCode": "EC1A"
  },
  {
    "name": "Toronto",
    "country": "Canada",
    "region": "Ontario",
    "lat": "43.651",
    "lon": "-79.383",
    "timezone_id": "America/Toronto",
    "localtime": "2024-10-27 10:30",
    "utc_offset": "-4.0",
    "ip": "142.150.0.1",
    "zipCode": "M5H 2N2"
  }
]
