[
  {
    "name": "Cliffside Park",
    "country": "United States of America",
    "region": "New Jersey",
    "lat": "40.817",
    "lon": "-73.988",
    "timezone_id": "America/New_York",
    "localtime": "2024-10-27 10:30",
    "utc_offset": "-4.0",
    "ip": "134.201.250.155",
    "zipCode": "07010",
    "expected": {
      "country": "United States of America",
      "region": "New Jersey",
      "timezone_id": "America/New_York",
      "utc_offset": "-4.0",
      "language": "en",
      "unit": "m",
      "latRange": [40.7, 40.9],
      "lonRange": [-74.1, -73.8],
      "is_day": "yes",
      "validateAirQuality": true,
      "weatherDescription": "Partly cloudy"
    }
  },
  {
    "name": "Paris",
    "country": "France",
    "region": "Île-de-France",
    "lat": "48.8566",
    "lon": "2.3522",
    "timezone_id": "Europe/Paris",
    "localtime": "2024-10-27 16:30",
    "utc_offset": "2.0",
    "ip": "82.64.24.100",
    "zipCode": "75001",
    "expected": {
      "country": "France",
      "region": "Île-de-France",
      "timezone_id": "Europe/Paris",
      "utc_offset": "2.0",
      "language": "en",
      "unit": "m",
      "latRange": [48.8, 48.9],
      "lonRange": [2.2, 2.5],
      "is_day": "yes",
      "validateAirQuality": true,
      "weatherDescription": "Cloudy"
    }
  },
  {
    "name": "New York",
    "country": "United States of America",
    "region": "New York",
    "lat": "40.714",
    "lon": "-74.006",
    "timezone_id": "America/New_York",
    "localtime": "2024-10-27 10:30",
    "utc_offset": "-4.0",
    "ip": "8.8.8.8",
    "zipCode": "10001",
    "expected": {
      "country": "United States of America",
      "region": "New York",
      "timezone_id": "America/New_York",
      "utc_offset": "-4.0",
      "language": "en",
      "unit": "m",
      "latRange": [40.6, 40.8],
      "lonRange": [-74.1, -73.9],
      "is_day": "yes",
      "validateAirQuality": true,
      "weatherDescription": "Sunny"
    }
  },
  {
    "name": "London",
    "country": "United Kingdom",
    "region": "Greater London",
    "lat": "51.5074",
    "lon": "-0.1278",
    "timezone_id": "Europe/London",
    "localtime": "2024-10-27 15:30",
    "utc_offset": "1.0",
    "ip": "81.2.69.142",
    "zipCode": "EC1A",
    "expected": {
      "country": "United Kingdom",
      "region": "Greater London",
      "timezone_id": "Europe/London",
      "utc_offset": "1.0",
      "language": "en",
      "unit": "m",
      "latRange": [51.4, 51.6],
      "lonRange": [-0.2, 0.1],
      "is_day": "yes",
      "validateAirQuality": true,
      "weatherDescription": "Partly cloudy"
    }
  },
  {
    "name": "Madrid",
    "country": "Spain",
    "region": "Madrid",
    "lat": "40.4168",
    "lon": "-3.7038",
    "timezone_id": "Europe/Madrid",
    "localtime": "2024-10-27 16:30",
    "utc_offset": "2.0",
    "ip": "88.27.153.201",
    "zipCode": "28001",
    "expected": {
      "country": "Spain",
      "region": "Madrid",
      "timezone_id": "Europe/Madrid",
      "utc_offset": "2.0",
      "language": "en",
      "unit": "m",
      "latRange": [40.3, 40.5],
      "lonRange": [-3.8, -3.6],
      "is_day": "yes",
      "validateAirQuality": true,
      "weatherDescription": "Clear"
    }
  },
  {
    "name": "Tokyo",
    "country": "Japan",
    "region": "Tokyo",
    "lat": "35.6895",
    "lon": "139.6917",
    "timezone_id": "Asia/Tokyo",
    "localtime": "2024-10-27 23:30",
    "utc_offset": "9.0",
    "ip": "210.150.10.100",
    "zipCode": "100-0001",
    "expected": {
      "country": "Japan",
      "region": "Tokyo",
      "timezone_id": "Asia/Tokyo",
      "utc_offset": "9.0",
      "language": "en",
      "unit": "m",
      "latRange": [35.6, 35.8],
      "lonRange": [139.6, 139.8],
      "is_day": "yes",
      "validateAirQuality": true,
      "weatherDescription": "Partly cloudy"
    }
  },
  {
    "name": "Berlin",
    "country": "Germany",
    "region": "Berlin",
    "lat": "52.5200",
    "lon": "13.4050",
    "timezone_id": "Europe/Berlin",
    "localtime": "2024-10-27 16:30",
    "utc_offset": "2.0",
    "ip": "85.214.132.117",
    "zipCode": "10115",
    "expected": {
      "country": "Germany",
      "region": "Berlin",
      "timezone_id": "Europe/Berlin",
      "utc_offset": "2.0",
      "language": "en",
      "unit": "m",
      "latRange": [52.4, 52.6],
      "lonRange": [13.3, 13.5],
      "is_day": "yes",
      "validateAirQuality": true,
      "weatherDescription": "Clear"
    }
  },
  {
    "name": "Sydney",
    "country": "Australia",
    "region": "New South Wales",
    "lat": "-33.8688",
    "lon": "151.2093",
    "timezone_id": "Australia/Sydney",
    "localtime": "2024-10-28 01:30",
    "utc_offset": "11.0",
    "ip": "1.120.0.1",
    "zipCode": "2000",
    "expected": {
      "country": "Australia",
      "region": "New South Wales",
      "timezone_id": "Australia/Sydney",
      "utc_offset": "11.0",
      "language": "en",
      "unit": "m",
      "latRange": [-33.9, -33.7],
      "lonRange": [151.1, 151.3],
      "is_day": "no",
      "validateAirQuality": false,
      "weatherDescription": "Clear"
    }
  },
  {
    "name": "Los Angeles",
    "country": "United States of America",
    "region": "California",
    "lat": "34.0522",
    "lon": "-118.2437",
    "timezone_id": "America/Los_Angeles",
    "localtime": "2024-10-27 07:30",
    "utc_offset": "-7.0",
    "ip": "104.16.123.96",
    "zipCode": "90001",
    "expected": {
      "country": "United States of America",
      "region": "California",
      "timezone_id": "America/Los_Angeles",
      "utc_offset": "-7.0",
      "language": "en",
      "unit": "m",
      "latRange": [33.9, 34.2],
      "lonRange": [-118.4, -118.1],
      "is_day": "yes",
      "validateAirQuality": true,
      "weatherDescription": "Sunny"
    }
  },
  {
    "name": "Toronto",
    "country": "Canada",
    "region": "Ontario",
    "lat": "43.651",
    "lon": "-79.383",
    "timezone_id": "America/Toronto",
    "localtime": "2024-10-27 10:30",
    "utc_offset": "-4.0",
    "ip": "142.150.0.1",
    "zipCode": "M5H 2N2",
    "expected": {
      "country": "Canada",
      "region": "Ontario",
      "timezone_id": "America/Toronto",
      "utc_offset": "-4.0",
      "language": "en",
      "unit": "m",
      "latRange": [43.5, 43.7],
      "lonRange": [-79.5, -79.2],
      "is_day": "yes",
      "validateAirQuality": true,
      "weatherDescription": "Cloudy"
    }
  }
]
